{
  "global": {
    "totalStreams": 52400000000,
    "trendPercent": 9.2,
    "topArtists": [
      { "id": "a1", "name": "The Midnight", "streams": 4280000000, "trend": 14.2, "topSong": "Synthwave Sunrise", "lat": 34.05, "lng": -118.24 },
      { "id": "a2", "name": "Billie Eilish", "streams": 3920000000, "trend": -2.8, "topSong": "Ghost of You", "lat": 34.17, "lng": -118.60 },
      { "id": "a3", "name": "Bad Bunny", "streams": 3650000000, "trend": 7.5, "topSong": "Tití Me Preguntó", "lat": 18.46, "lng": -66.11 },
      { "id": "a4", "name": "Taylor Swift", "streams": 3410000000, "trend": 16.1, "topSong": "Anti-Hero", "lat": 36.17, "lng": -86.78 },
      { "id": "a5", "name": "Drake", "streams": 3120000000, "trend": -4.3, "topSong": "Rich Flex", "lat": 43.65, "lng": -79.38 },
      { "id": "a6", "name": "Doja Cat", "streams": 2870000000, "trend": 21.6, "topSong": "Paint The Town Red", "lat": 34.20, "lng": -118.55 },
      { "id": "a7", "name": "The Weeknd", "streams": 2640000000, "trend": -1.1, "topSong": "Blinding Lights", "lat": 43.70, "lng": -79.41 },
      { "id": "a8", "name": "Rosalía", "streams": 2490000000, "trend": 18.8, "topSong": "MALAMENTE", "lat": 41.38, "lng": 2.17 },
      { "id": "a9", "name": "BTS", "streams": 2230000000, "trend": -7.4, "topSong": "Dynamite", "lat": 37.57, "lng": 126.98 },
      { "id": "a10", "name": "Beyoncé", "streams": 2050000000, "trend": 5.3, "topSong": "Texas Hold 'Em", "lat": 29.76, "lng": -95.37 }
    ],
    "topSongs": [
      { "id": "s1", "title": "Synthwave Sunrise", "artist": "The Midnight", "album": "Monsters of the Midnight", "streams": 920000000, "duration": "4:02", "trend": 18.4, "lat": 34.05, "lng": -118.24 },
      { "id": "s2", "title": "Ghost of You", "artist": "Billie Eilish", "album": "Hit Me Hard and Soft", "streams": 845000000, "duration": "3:48", "trend": -3.1, "lat": 34.17, "lng": -118.60 },
      { "id": "s3", "title": "Tití Me Preguntó", "artist": "Bad Bunny", "album": "Un Verano Sin Ti", "streams": 812000000, "duration": "4:05", "trend": 9.2, "lat": 18.46, "lng": -66.11 },
      { "id": "s4", "title": "Anti-Hero", "artist": "Taylor Swift", "album": "Midnights", "streams": 788000000, "duration": "3:20", "trend": 14.7, "lat": 36.17, "lng": -86.78 },
      { "id": "s5", "title": "Rich Flex", "artist": "Drake", "album": "Her Loss", "streams": 754000000, "duration": "3:43", "trend": -5.8, "lat": 43.65, "lng": -79.38 },
      { "id": "s6", "title": "Paint The Town Red", "artist": "Doja Cat", "album": "Scarlet", "streams": 731000000, "duration": "3:55", "trend": 24.1, "lat": 34.20, "lng": -118.55 },
      { "id": "s7", "title": "Blinding Lights", "artist": "The Weeknd", "album": "After Hours", "streams": 698000000, "duration": "3:20", "trend": 1.2, "lat": 43.70, "lng": -79.41 },
      { "id": "s8", "title": "MALAMENTE", "artist": "Rosalía", "album": "Los Ángeles", "streams": 672000000, "duration": "3:28", "trend": 20.5, "lat": 41.38, "lng": 2.17 },
      { "id": "s9", "title": "Dynamite", "artist": "BTS", "album": "BE", "streams": 645000000, "duration": "3:19", "trend": -8.2, "lat": 37.57, "lng": 126.98 },
      { "id": "s10", "title": "Texas Hold 'Em", "artist": "Beyoncé", "album": "Cowboy Carter", "streams": 618000000, "duration": "3:53", "trend": 6.7, "lat": 29.76, "lng": -95.37 }
    ],
    "topAlbums": [
      { "id": "al1", "title": "Monsters of the Midnight", "artist": "The Midnight", "streams": 2140000000, "trend": 15.3, "lat": 34.05, "lng": -118.24 },
      { "id": "al2", "title": "Hit Me Hard and Soft", "artist": "Billie Eilish", "streams": 1980000000, "trend": -1.9, "lat": 34.17, "lng": -118.60 },
      { "id": "al3", "title": "Un Verano Sin Ti", "artist": "Bad Bunny", "streams": 1870000000, "trend": 8.4, "lat": 18.46, "lng": -66.11 },
      { "id": "al4", "title": "Midnights", "artist": "Taylor Swift", "streams": 1730000000, "trend": 13.8, "lat": 36.17, "lng": -86.78 },
      { "id": "al5", "title": "Her Loss", "artist": "Drake", "streams": 1620000000, "trend": -3.6, "lat": 43.65, "lng": -79.38 },
      { "id": "al6", "title": "Scarlet", "artist": "Doja Cat", "streams": 1480000000, "trend": 22.7, "lat": 34.20, "lng": -118.55 },
      { "id": "al7", "title": "After Hours", "artist": "The Weeknd", "streams": 1360000000, "trend": 0.8, "lat": 43.70, "lng": -79.41 },
      { "id": "al8", "title": "Los Ángeles", "artist": "Rosalía", "streams": 1250000000, "trend": 19.2, "lat": 41.38, "lng": 2.17 },
      { "id": "al9", "title": "BE", "artist": "BTS", "streams": 1140000000, "trend": -6.5, "lat": 37.57, "lng": 126.98 },
      { "id": "al10", "title": "Cowboy Carter", "artist": "Beyoncé", "streams": 1060000000, "trend": 7.1, "lat": 29.76, "lng": -95.37 }
    ]
  },
  "countries": {
    "US": {
      "name": "United States",
      "lat": 37.09,
      "lng": -95.71,
      "totalStreams": 12800000000,
      "trendPercent": 7.3,
      "topArtists": [
        { "id": "a4", "name": "Taylor Swift", "streams": 1240000000, "trend": 18.5, "topSong": "Anti-Hero", "lat": 36.17, "lng": -86.78 },
        { "id": "a10", "name": "Beyoncé", "streams": 980000000, "trend": 8.2, "topSong": "Texas Hold 'Em", "lat": 29.76, "lng": -95.37 },
        { "id": "a5", "name": "Drake", "streams": 920000000, "trend": -3.1, "topSong": "Rich Flex", "lat": 43.65, "lng": -79.38 },
        { "id": "a2", "name": "Billie Eilish", "streams": 880000000, "trend": 2.4, "topSong": "Ghost of You", "lat": 34.17, "lng": -118.60 },
        { "id": "a1", "name": "The Midnight", "streams": 820000000, "trend": 12.1, "topSong": "Synthwave Sunrise", "lat": 34.05, "lng": -118.24 },
        { "id": "a6", "name": "Doja Cat", "streams": 780000000, "trend": 20.3, "topSong": "Paint The Town Red", "lat": 34.20, "lng": -118.55 },
        { "id": "a7", "name": "The Weeknd", "streams": 740000000, "trend": 1.5, "topSong": "Blinding Lights", "lat": 43.70, "lng": -79.41 },
        { "id": "a3", "name": "Bad Bunny", "streams": 690000000, "trend": 5.8, "topSong": "Tití Me Preguntó", "lat": 18.46, "lng": -66.11 },
        { "id": "us1", "name": "Kendrick Lamar", "streams": 650000000, "trend": 31.4, "topSong": "Not Like Us", "lat": 33.99, "lng": -118.17 },
        { "id": "us2", "name": "SZA", "streams": 610000000, "trend": 14.7, "topSong": "Kill Bill", "lat": 40.74, "lng": -74.18 }
      ],
      "topSongs": [
        { "id": "s4", "title": "Anti-Hero", "artist": "Taylor Swift", "album": "Midnights", "streams": 480000000, "duration": "3:20", "trend": 16.2, "lat": 36.17, "lng": -86.78 },
        { "id": "us_s1", "title": "Not Like Us", "artist": "Kendrick Lamar", "album": "GNX", "streams": 460000000, "duration": "4:34", "trend": 34.1, "lat": 33.99, "lng": -118.17 },
        { "id": "s10", "title": "Texas Hold 'Em", "artist": "Beyoncé", "album": "Cowboy Carter", "streams": 420000000, "duration": "3:53", "trend": 9.4, "lat": 29.76, "lng": -95.37 },
        { "id": "s5", "title": "Rich Flex", "artist": "Drake", "album": "Her Loss", "streams": 390000000, "duration": "3:43", "trend": -4.2, "lat": 43.65, "lng": -79.38 },
        { "id": "us_s2", "title": "Kill Bill", "artist": "SZA", "album": "SOS", "streams": 370000000, "duration": "2:33", "trend": 11.8, "lat": 40.74, "lng": -74.18 },
        { "id": "s2", "title": "Ghost of You", "artist": "Billie Eilish", "album": "Hit Me Hard and Soft", "streams": 340000000, "duration": "3:48", "trend": 1.9, "lat": 34.17, "lng": -118.60 },
        { "id": "s1", "title": "Synthwave Sunrise", "artist": "The Midnight", "album": "Monsters of the Midnight", "streams": 310000000, "duration": "4:02", "trend": 14.5, "lat": 34.05, "lng": -118.24 },
        { "id": "s6", "title": "Paint The Town Red", "artist": "Doja Cat", "album": "Scarlet", "streams": 290000000, "duration": "3:55", "trend": 22.6, "lat": 34.20, "lng": -118.55 },
        { "id": "s7", "title": "Blinding Lights", "artist": "The Weeknd", "album": "After Hours", "streams": 270000000, "duration": "3:20", "trend": 0.7, "lat": 43.70, "lng": -79.41 },
        { "id": "s3", "title": "Tití Me Preguntó", "artist": "Bad Bunny", "album": "Un Verano Sin Ti", "streams": 250000000, "duration": "4:05", "trend": 6.1, "lat": 18.46, "lng": -66.11 }
      ],
      "topAlbums": [
        { "id": "al4", "title": "Midnights", "artist": "Taylor Swift", "streams": 610000000, "trend": 15.4, "lat": 36.17, "lng": -86.78 },
        { "id": "us_al1", "title": "GNX", "artist": "Kendrick Lamar", "streams": 580000000, "trend": 29.7, "lat": 33.99, "lng": -118.17 },
        { "id": "al10", "title": "Cowboy Carter", "artist": "Beyoncé", "streams": 540000000, "trend": 7.8, "lat": 29.76, "lng": -95.37 },
        { "id": "al5", "title": "Her Loss", "artist": "Drake", "streams": 500000000, "trend": -2.8, "lat": 43.65, "lng": -79.38 },
        { "id": "us_al2", "title": "SOS", "artist": "SZA", "streams": 470000000, "trend": 12.3, "lat": 40.74, "lng": -74.18 },
        { "id": "al2", "title": "Hit Me Hard and Soft", "artist": "Billie Eilish", "streams": 440000000, "trend": 2.1, "lat": 34.17, "lng": -118.60 },
        { "id": "al1", "title": "Monsters of the Midnight", "artist": "The Midnight", "streams": 400000000, "trend": 13.8, "lat": 34.05, "lng": -118.24 },
        { "id": "al6", "title": "Scarlet", "artist": "Doja Cat", "streams": 370000000, "trend": 20.5, "lat": 34.20, "lng": -118.55 },
        { "id": "al7", "title": "After Hours", "artist": "The Weeknd", "streams": 340000000, "trend": 0.6, "lat": 43.70, "lng": -79.41 },
        { "id": "al3", "title": "Un Verano Sin Ti", "artist": "Bad Bunny", "streams": 310000000, "trend": 5.9, "lat": 18.46, "lng": -66.11 }
      ]
    },
    "GB": {
      "name": "United Kingdom",
      "lat": 54.37,
      "lng": -2.0,
      "totalStreams": 4200000000,
      "trendPercent": 5.8,
      "topArtists": [
        { "id": "gb1", "name": "Coldplay", "streams": 620000000, "trend": 9.4, "topSong": "Yellow", "lat": 51.50, "lng": -0.12 },
        { "id": "gb2", "name": "Dua Lipa", "streams": 580000000, "trend": 12.7, "topSong": "Levitating", "lat": 51.55, "lng": -0.08 },
        { "id": "a2", "name": "Billie Eilish", "streams": 540000000, "trend": 3.2, "topSong": "Ghost of You", "lat": 34.17, "lng": -118.60 },
        { "id": "gb3", "name": "Sam Smith", "streams": 490000000, "trend": -2.5, "topSong": "Unholy", "lat": 51.48, "lng": -0.09 },
        { "id": "a1", "name": "The Midnight", "streams": 450000000, "trend": 11.3, "topSong": "Synthwave Sunrise", "lat": 34.05, "lng": -118.24 },
        { "id": "a4", "name": "Taylor Swift", "streams": 420000000, "trend": 14.1, "topSong": "Anti-Hero", "lat": 36.17, "lng": -86.78 },
        { "id": "gb4", "name": "Ed Sheeran", "streams": 400000000, "trend": 1.8, "topSong": "Shape of You", "lat": 52.00, "lng": 0.72 },
        { "id": "a8", "name": "Rosalía", "streams": 360000000, "trend": 17.2, "topSong": "MALAMENTE", "lat": 41.38, "lng": 2.17 },
        { "id": "a7", "name": "The Weeknd", "streams": 340000000, "trend": -0.9, "topSong": "Blinding Lights", "lat": 43.70, "lng": -79.41 },
        { "id": "a6", "name": "Doja Cat", "streams": 310000000, "trend": 18.5, "topSong": "Paint The Town Red", "lat": 34.20, "lng": -118.55 }
      ],
      "topSongs": [
        { "id": "gb_s1", "title": "Levitating", "artist": "Dua Lipa", "album": "Future Nostalgia", "streams": 310000000, "duration": "3:23", "trend": 14.2, "lat": 51.55, "lng": -0.08 },
        { "id": "s2", "title": "Ghost of You", "artist": "Billie Eilish", "album": "Hit Me Hard and Soft", "streams": 280000000, "duration": "3:48", "trend": 4.1, "lat": 34.17, "lng": -118.60 },
        { "id": "gb_s2", "title": "Unholy", "artist": "Sam Smith", "album": "Gloria", "streams": 260000000, "duration": "2:35", "trend": -1.8, "lat": 51.48, "lng": -0.09 },
        { "id": "s1", "title": "Synthwave Sunrise", "artist": "The Midnight", "album": "Monsters of the Midnight", "streams": 240000000, "duration": "4:02", "trend": 12.8, "lat": 34.05, "lng": -118.24 },
        { "id": "s4", "title": "Anti-Hero", "artist": "Taylor Swift", "album": "Midnights", "streams": 220000000, "duration": "3:20", "trend": 13.5, "lat": 36.17, "lng": -86.78 },
        { "id": "gb_s3", "title": "Shape of You", "artist": "Ed Sheeran", "album": "÷", "streams": 200000000, "duration": "3:54", "trend": 0.5, "lat": 52.00, "lng": 0.72 },
        { "id": "s8", "title": "MALAMENTE", "artist": "Rosalía", "album": "Los Ángeles", "streams": 180000000, "duration": "3:28", "trend": 18.9, "lat": 41.38, "lng": 2.17 },
        { "id": "s7", "title": "Blinding Lights", "artist": "The Weeknd", "album": "After Hours", "streams": 160000000, "duration": "3:20", "trend": -0.4, "lat": 43.70, "lng": -79.41 },
        { "id": "s6", "title": "Paint The Town Red", "artist": "Doja Cat", "album": "Scarlet", "streams": 145000000, "duration": "3:55", "trend": 19.7, "lat": 34.20, "lng": -118.55 },
        { "id": "gb_s4", "title": "Yellow", "artist": "Coldplay", "album": "Parachutes", "streams": 130000000, "duration": "4:29", "trend": 3.2, "lat": 51.50, "lng": -0.12 }
      ],
      "topAlbums": [
        { "id": "gb_al1", "title": "Future Nostalgia", "artist": "Dua Lipa", "streams": 390000000, "trend": 11.8, "lat": 51.55, "lng": -0.08 },
        { "id": "al2", "title": "Hit Me Hard and Soft", "artist": "Billie Eilish", "streams": 350000000, "trend": 3.5, "lat": 34.17, "lng": -118.60 },
        { "id": "gb_al2", "title": "Gloria", "artist": "Sam Smith", "streams": 320000000, "trend": -1.2, "lat": 51.48, "lng": -0.09 },
        { "id": "al1", "title": "Monsters of the Midnight", "artist": "The Midnight", "streams": 290000000, "trend": 10.4, "lat": 34.05, "lng": -118.24 },
        { "id": "al4", "title": "Midnights", "artist": "Taylor Swift", "streams": 270000000, "trend": 12.9, "lat": 36.17, "lng": -86.78 },
        { "id": "gb_al3", "title": "÷ (Divide)", "artist": "Ed Sheeran", "streams": 250000000, "trend": 0.3, "lat": 52.00, "lng": 0.72 },
        { "id": "al8", "title": "Los Ángeles", "artist": "Rosalía", "streams": 230000000, "trend": 17.5, "lat": 41.38, "lng": 2.17 },
        { "id": "al7", "title": "After Hours", "artist": "The Weeknd", "streams": 210000000, "trend": -0.2, "lat": 43.70, "lng": -79.41 },
        { "id": "al6", "title": "Scarlet", "artist": "Doja Cat", "streams": 190000000, "trend": 18.3, "lat": 34.20, "lng": -118.55 },
        { "id": "gb_al4", "title": "Music of the Spheres", "artist": "Coldplay", "streams": 170000000, "trend": 6.1, "lat": 51.50, "lng": -0.12 }
      ]
    },
    "JP": {
      "name": "Japan",
      "lat": 36.20,
      "lng": 138.25,
      "totalStreams": 5100000000,
      "trendPercent": 11.4,
      "topArtists": [
        { "id": "jp1", "name": "Kenshi Yonezu", "streams": 780000000, "trend": 22.1, "topSong": "Lemon", "lat": 35.69, "lng": 139.69 },
        { "id": "jp2", "name": "Yorushika", "streams": 640000000, "trend": 18.5, "topSong": "Say It", "lat": 34.69, "lng": 135.50 },
        { "id": "a9", "name": "BTS", "streams": 590000000, "trend": -5.2, "topSong": "Dynamite", "lat": 37.57, "lng": 126.98 },
        { "id": "jp3", "name": "YOASOBI", "streams": 560000000, "trend": 31.7, "topSong": "Idol", "lat": 35.68, "lng": 139.77 },
        { "id": "jp4", "name": "Ado", "streams": 520000000, "trend": 28.4, "topSong": "Uta no Uta", "lat": 35.66, "lng": 139.70 },
        { "id": "a1", "name": "The Midnight", "streams": 380000000, "trend": 9.7, "topSong": "Synthwave Sunrise", "lat": 34.05, "lng": -118.24 },
        { "id": "a2", "name": "Billie Eilish", "streams": 350000000, "trend": 1.8, "topSong": "Ghost of You", "lat": 34.17, "lng": -118.60 },
        { "id": "jp5", "name": "Official HIGE DANdism", "streams": 320000000, "trend": 15.3, "topSong": "Subtitle", "lat": 35.15, "lng": 136.92 },
        { "id": "a4", "name": "Taylor Swift", "streams": 290000000, "trend": 10.2, "topSong": "Anti-Hero", "lat": 36.17, "lng": -86.78 },
        { "id": "jp6", "name": "Fujii Kaze", "streams": 260000000, "trend": 19.8, "topSong": "Kirari", "lat": 34.83, "lng": 134.69 }
      ],
      "topSongs": [
        { "id": "jp_s1", "title": "Idol", "artist": "YOASOBI", "album": "THE BOOK 3", "streams": 340000000, "duration": "3:32", "trend": 34.2, "lat": 35.68, "lng": 139.77 },
        { "id": "jp_s2", "title": "Lemon", "artist": "Kenshi Yonezu", "album": "Lemon / Sense of Wonder", "streams": 310000000, "duration": "4:15", "trend": 19.5, "lat": 35.69, "lng": 139.69 },
        { "id": "jp_s3", "title": "Uta no Uta", "artist": "Ado", "album": "One Piece Film RED", "streams": 290000000, "duration": "3:48", "trend": 27.8, "lat": 35.66, "lng": 139.70 },
        { "id": "jp_s4", "title": "Say It", "artist": "Yorushika", "album": "Will You Still Be There?", "streams": 260000000, "duration": "4:02", "trend": 16.3, "lat": 34.69, "lng": 135.50 },
        { "id": "s9", "title": "Dynamite", "artist": "BTS", "album": "BE", "streams": 240000000, "duration": "3:19", "trend": -6.1, "lat": 37.57, "lng": 126.98 },
        { "id": "jp_s5", "title": "Subtitle", "artist": "Official HIGE DANdism", "album": "Editorial", "streams": 220000000, "duration": "4:36", "trend": 13.7, "lat": 35.15, "lng": 136.92 },
        { "id": "jp_s6", "title": "Kirari", "artist": "Fujii Kaze", "album": "LOVE ALL SERVE ALL", "streams": 200000000, "duration": "3:14", "trend": 20.1, "lat": 34.83, "lng": 134.69 },
        { "id": "s1", "title": "Synthwave Sunrise", "artist": "The Midnight", "album": "Monsters of the Midnight", "streams": 180000000, "duration": "4:02", "trend": 8.9, "lat": 34.05, "lng": -118.24 },
        { "id": "s2", "title": "Ghost of You", "artist": "Billie Eilish", "album": "Hit Me Hard and Soft", "streams": 160000000, "duration": "3:48", "trend": 2.4, "lat": 34.17, "lng": -118.60 },
        { "id": "s4", "title": "Anti-Hero", "artist": "Taylor Swift", "album": "Midnights", "streams": 140000000, "duration": "3:20", "trend": 9.8, "lat": 36.17, "lng": -86.78 }
      ],
      "topAlbums": [
        { "id": "jp_al1", "title": "THE BOOK 3", "artist": "YOASOBI", "streams": 430000000, "trend": 30.4, "lat": 35.68, "lng": 139.77 },
        { "id": "jp_al2", "title": "Lemon / Sense of Wonder", "artist": "Kenshi Yonezu", "streams": 400000000, "trend": 18.2, "lat": 35.69, "lng": 139.69 },
        { "id": "jp_al3", "title": "One Piece Film RED", "artist": "Ado", "streams": 370000000, "trend": 25.6, "lat": 35.66, "lng": 139.70 },
        { "id": "jp_al4", "title": "Will You Still Be There?", "artist": "Yorushika", "streams": 340000000, "trend": 15.1, "lat": 34.69, "lng": 135.50 },
        { "id": "al9", "title": "BE", "artist": "BTS", "streams": 310000000, "trend": -4.8, "lat": 37.57, "lng": 126.98 },
        { "id": "jp_al5", "title": "Editorial", "artist": "Official HIGE DANdism", "streams": 280000000, "trend": 12.4, "lat": 35.15, "lng": 136.92 },
        { "id": "jp_al6", "title": "LOVE ALL SERVE ALL", "artist": "Fujii Kaze", "streams": 250000000, "trend": 18.7, "lat": 34.83, "lng": 134.69 },
        { "id": "al1", "title": "Monsters of the Midnight", "artist": "The Midnight", "streams": 220000000, "trend": 7.8, "lat": 34.05, "lng": -118.24 },
        { "id": "al2", "title": "Hit Me Hard and Soft", "artist": "Billie Eilish", "streams": 200000000, "trend": 1.9, "lat": 34.17, "lng": -118.60 },
        { "id": "al4", "title": "Midnights", "artist": "Taylor Swift", "streams": 180000000, "trend": 9.1, "lat": 36.17, "lng": -86.78 }
      ]
    },
    "BR": {
      "name": "Brazil",
      "lat": -14.24,
      "lng": -51.93,
      "totalStreams": 3800000000,
      "trendPercent": 13.6,
      "topArtists": [
        { "id": "a3", "name": "Bad Bunny", "streams": 620000000, "trend": 11.4, "topSong": "Tití Me Preguntó", "lat": 18.46, "lng": -66.11 },
        { "id": "br1", "name": "Anitta", "streams": 580000000, "trend": 24.8, "topSong": "Envolver", "lat": -22.91, "lng": -43.17 },
        { "id": "br2", "name": "Luísa Sonza", "streams": 520000000, "trend": 18.3, "topSong": "Cachorrina", "lat": -22.90, "lng": -43.18 },
        { "id": "br3", "name": "Gusttavo Lima", "streams": 480000000, "trend": 9.7, "topSong": "Bloqueado", "lat": -16.68, "lng": -49.25 },
        { "id": "a4", "name": "Taylor Swift", "streams": 420000000, "trend": 15.2, "topSong": "Anti-Hero", "lat": 36.17, "lng": -86.78 },
        { "id": "br4", "name": "Marília Mendonça", "streams": 390000000, "trend": 6.1, "topSong": "Graveto", "lat": -16.68, "lng": -49.25 },
        { "id": "a6", "name": "Doja Cat", "streams": 360000000, "trend": 19.5, "topSong": "Paint The Town Red", "lat": 34.20, "lng": -118.55 },
        { "id": "a2", "name": "Billie Eilish", "streams": 330000000, "trend": -1.2, "topSong": "Ghost of You", "lat": 34.17, "lng": -118.60 },
        { "id": "br5", "name": "WC no Beat", "streams": 300000000, "trend": 22.4, "topSong": "Vai Dar Onda", "lat": -23.55, "lng": -46.63 },
        { "id": "a7", "name": "The Weeknd", "streams": 270000000, "trend": 0.8, "topSong": "Blinding Lights", "lat": 43.70, "lng": -79.41 }
      ],
      "topSongs": [
        { "id": "s3", "title": "Tití Me Preguntó", "artist": "Bad Bunny", "album": "Un Verano Sin Ti", "streams": 320000000, "duration": "4:05", "trend": 12.7, "lat": 18.46, "lng": -66.11 },
        { "id": "br_s1", "title": "Envolver", "artist": "Anitta", "album": "Versions of Me", "streams": 300000000, "duration": "2:50", "trend": 26.3, "lat": -22.91, "lng": -43.17 },
        { "id": "br_s2", "title": "Cachorrina", "artist": "Luísa Sonza", "album": "DOCE 22", "streams": 270000000, "duration": "3:12", "trend": 19.8, "lat": -22.90, "lng": -43.18 },
        { "id": "s4", "title": "Anti-Hero", "artist": "Taylor Swift", "album": "Midnights", "streams": 240000000, "duration": "3:20", "trend": 14.1, "lat": 36.17, "lng": -86.78 },
        { "id": "br_s3", "title": "Bloqueado", "artist": "Gusttavo Lima", "album": "Embaixador", "streams": 220000000, "duration": "3:45", "trend": 8.9, "lat": -16.68, "lng": -49.25 },
        { "id": "s6", "title": "Paint The Town Red", "artist": "Doja Cat", "album": "Scarlet", "streams": 200000000, "duration": "3:55", "trend": 21.2, "lat": 34.20, "lng": -118.55 },
        { "id": "s2", "title": "Ghost of You", "artist": "Billie Eilish", "album": "Hit Me Hard and Soft", "streams": 180000000, "duration": "3:48", "trend": -0.7, "lat": 34.17, "lng": -118.60 },
        { "id": "br_s4", "title": "Graveto", "artist": "Marília Mendonça", "album": "Decretos Reais", "streams": 160000000, "duration": "4:18", "trend": 5.4, "lat": -16.68, "lng": -49.25 },
        { "id": "s7", "title": "Blinding Lights", "artist": "The Weeknd", "album": "After Hours", "streams": 140000000, "duration": "3:20", "trend": 1.1, "lat": 43.70, "lng": -79.41 },
        { "id": "br_s5", "title": "Vai Dar Onda", "artist": "WC no Beat", "album": "Vai Dar Onda", "streams": 120000000, "duration": "2:58", "trend": 23.7, "lat": -23.55, "lng": -46.63 }
      ],
      "topAlbums": [
        { "id": "al3", "title": "Un Verano Sin Ti", "artist": "Bad Bunny", "streams": 400000000, "trend": 10.8, "lat": 18.46, "lng": -66.11 },
        { "id": "br_al1", "title": "Versions of Me", "artist": "Anitta", "streams": 370000000, "trend": 24.1, "lat": -22.91, "lng": -43.17 },
        { "id": "br_al2", "title": "DOCE 22", "artist": "Luísa Sonza", "streams": 340000000, "trend": 17.6, "lat": -22.90, "lng": -43.18 },
        { "id": "al4", "title": "Midnights", "artist": "Taylor Swift", "streams": 310000000, "trend": 12.9, "lat": 36.17, "lng": -86.78 },
        { "id": "br_al3", "title": "Embaixador", "artist": "Gusttavo Lima", "streams": 280000000, "trend": 7.3, "lat": -16.68, "lng": -49.25 },
        { "id": "al6", "title": "Scarlet", "artist": "Doja Cat", "streams": 250000000, "trend": 19.4, "lat": 34.20, "lng": -118.55 },
        { "id": "al2", "title": "Hit Me Hard and Soft", "artist": "Billie Eilish", "streams": 220000000, "trend": -0.5, "lat": 34.17, "lng": -118.60 },
        { "id": "br_al4", "title": "Decretos Reais", "artist": "Marília Mendonça", "streams": 200000000, "trend": 4.8, "lat": -16.68, "lng": -49.25 },
        { "id": "al7", "title": "After Hours", "artist": "The Weeknd", "streams": 180000000, "trend": 0.9, "lat": 43.70, "lng": -79.41 },
        { "id": "al5", "title": "Her Loss", "artist": "Drake", "streams": 160000000, "trend": -3.1, "lat": 43.65, "lng": -79.38 }
      ]
    },
    "KR": {
      "name": "South Korea",
      "lat": 35.91,
      "lng": 127.77,
      "totalStreams": 3200000000,
      "trendPercent": 14.8,
      "topArtists": [
        { "id": "a9", "name": "BTS", "streams": 780000000, "trend": -3.4, "topSong": "Dynamite", "lat": 37.57, "lng": 126.98 },
        { "id": "kr1", "name": "BLACKPINK", "streams": 720000000, "trend": 8.9, "topSong": "Pink Venom", "lat": 37.51, "lng": 127.02 },
        { "id": "kr2", "name": "aespa", "streams": 580000000, "trend": 27.4, "topSong": "Supernova", "lat": 37.52, "lng": 127.03 },
        { "id": "kr3", "name": "NewJeans", "streams": 540000000, "trend": 34.1, "topSong": "Hype Boy", "lat": 37.55, "lng": 126.99 },
        { "id": "kr4", "name": "IU", "streams": 490000000, "trend": 11.2, "topSong": "Lilac", "lat": 37.56, "lng": 126.97 },
        { "id": "jp3", "name": "YOASOBI", "streams": 380000000, "trend": 22.3, "topSong": "Idol", "lat": 35.68, "lng": 139.77 },
        { "id": "a1", "name": "The Midnight", "streams": 320000000, "trend": 8.5, "topSong": "Synthwave Sunrise", "lat": 34.05, "lng": -118.24 },
        { "id": "a4", "name": "Taylor Swift", "streams": 300000000, "trend": 12.7, "topSong": "Anti-Hero", "lat": 36.17, "lng": -86.78 },
        { "id": "a2", "name": "Billie Eilish", "streams": 280000000, "trend": 1.5, "topSong": "Ghost of You", "lat": 34.17, "lng": -118.60 },
        { "id": "kr5", "name": "Stray Kids", "streams": 250000000, "trend": 19.6, "topSong": "S-Class", "lat": 37.52, "lng": 127.02 }
      ],
      "topSongs": [
        { "id": "s9", "title": "Dynamite", "artist": "BTS", "album": "BE", "streams": 380000000, "duration": "3:19", "trend": -4.2, "lat": 37.57, "lng": 126.98 },
        { "id": "kr_s1", "title": "Pink Venom", "artist": "BLACKPINK", "album": "BORN PINK", "streams": 350000000, "duration": "3:07", "trend": 10.1, "lat": 37.51, "lng": 127.02 },
        { "id": "kr_s2", "title": "Supernova", "artist": "aespa", "album": "Supernova", "streams": 310000000, "duration": "3:19", "trend": 29.5, "lat": 37.52, "lng": 127.03 },
        { "id": "kr_s3", "title": "Hype Boy", "artist": "NewJeans", "album": "New Jeans", "streams": 280000000, "duration": "3:01", "trend": 36.2, "lat": 37.55, "lng": 126.99 },
        { "id": "kr_s4", "title": "Lilac", "artist": "IU", "album": "LILAC", "streams": 250000000, "duration": "3:42", "trend": 9.4, "lat": 37.56, "lng": 126.97 },
        { "id": "jp_s1", "title": "Idol", "artist": "YOASOBI", "album": "THE BOOK 3", "streams": 200000000, "duration": "3:32", "trend": 24.7, "lat": 35.68, "lng": 139.77 },
        { "id": "s1", "title": "Synthwave Sunrise", "artist": "The Midnight", "album": "Monsters of the Midnight", "streams": 165000000, "duration": "4:02", "trend": 7.8, "lat": 34.05, "lng": -118.24 },
        { "id": "s4", "title": "Anti-Hero", "artist": "Taylor Swift", "album": "Midnights", "streams": 148000000, "duration": "3:20", "trend": 11.6, "lat": 36.17, "lng": -86.78 },
        { "id": "s2", "title": "Ghost of You", "artist": "Billie Eilish", "album": "Hit Me Hard and Soft", "streams": 132000000, "duration": "3:48", "trend": 1.8, "lat": 34.17, "lng": -118.60 },
        { "id": "kr_s5", "title": "S-Class", "artist": "Stray Kids", "album": "★★★★★ (5-STAR)", "streams": 118000000, "duration": "3:08", "trend": 20.9, "lat": 37.52, "lng": 127.02 }
      ],
      "topAlbums": [
        { "id": "al9", "title": "BE", "artist": "BTS", "streams": 480000000, "trend": -2.8, "lat": 37.57, "lng": 126.98 },
        { "id": "kr_al1", "title": "BORN PINK", "artist": "BLACKPINK", "streams": 450000000, "trend": 9.2, "lat": 37.51, "lng": 127.02 },
        { "id": "kr_al2", "title": "Supernova", "artist": "aespa", "streams": 400000000, "trend": 27.1, "lat": 37.52, "lng": 127.03 },
        { "id": "kr_al3", "title": "New Jeans", "artist": "NewJeans", "streams": 370000000, "trend": 33.8, "lat": 37.55, "lng": 126.99 },
        { "id": "kr_al4", "title": "LILAC", "artist": "IU", "streams": 340000000, "trend": 8.7, "lat": 37.56, "lng": 126.97 },
        { "id": "jp_al1", "title": "THE BOOK 3", "artist": "YOASOBI", "streams": 280000000, "trend": 21.4, "lat": 35.68, "lng": 139.77 },
        { "id": "al1", "title": "Monsters of the Midnight", "artist": "The Midnight", "streams": 220000000, "trend": 6.9, "lat": 34.05, "lng": -118.24 },
        { "id": "al4", "title": "Midnights", "artist": "Taylor Swift", "streams": 190000000, "trend": 10.8, "lat": 36.17, "lng": -86.78 },
        { "id": "al2", "title": "Hit Me Hard and Soft", "artist": "Billie Eilish", "streams": 165000000, "trend": 1.6, "lat": 34.17, "lng": -118.60 },
        { "id": "kr_al5", "title": "★★★★★ (5-STAR)", "artist": "Stray Kids", "streams": 145000000, "trend": 18.3, "lat": 37.52, "lng": 127.02 }
      ]
    },
    "DE": {
      "name": "Germany",
      "lat": 51.17,
      "lng": 10.45,
      "totalStreams": 3600000000,
      "trendPercent": 6.4,
      "topArtists": [
        { "id": "a1", "name": "The Midnight", "streams": 580000000, "trend": 16.8, "topSong": "Synthwave Sunrise", "lat": 34.05, "lng": -118.24 },
        { "id": "de1", "name": "Kraftwerk", "streams": 520000000, "trend": 4.2, "topSong": "Autobahn", "lat": 51.23, "lng": 6.78 },
        { "id": "a2", "name": "Billie Eilish", "streams": 480000000, "trend": -0.8, "topSong": "Ghost of You", "lat": 34.17, "lng": -118.60 },
        { "id": "de2", "name": "Rammstein", "streams": 440000000, "trend": 7.3, "topSong": "Du Hast", "lat": 52.52, "lng": 13.40 },
        { "id": "a4", "name": "Taylor Swift", "streams": 400000000, "trend": 13.5, "topSong": "Anti-Hero", "lat": 36.17, "lng": -86.78 },
        { "id": "a8", "name": "Rosalía", "streams": 360000000, "trend": 15.9, "topSong": "MALAMENTE", "lat": 41.38, "lng": 2.17 },
        { "id": "a7", "name": "The Weeknd", "streams": 330000000, "trend": -1.4, "topSong": "Blinding Lights", "lat": 43.70, "lng": -79.41 },
        { "id": "de3", "name": "AnnenMayKantereit", "streams": 300000000, "trend": 10.7, "topSong": "Pocahontas", "lat": 50.94, "lng": 6.96 },
        { "id": "a6", "name": "Doja Cat", "streams": 270000000, "trend": 17.8, "topSong": "Paint The Town Red", "lat": 34.20, "lng": -118.55 },
        { "id": "gb1", "name": "Coldplay", "streams": 240000000, "trend": 8.1, "topSong": "Yellow", "lat": 51.50, "lng": -0.12 }
      ],
      "topSongs": [
        { "id": "s1", "title": "Synthwave Sunrise", "artist": "The Midnight", "album": "Monsters of the Midnight", "streams": 290000000, "duration": "4:02", "trend": 17.4, "lat": 34.05, "lng": -118.24 },
        { "id": "s2", "title": "Ghost of You", "artist": "Billie Eilish", "album": "Hit Me Hard and Soft", "streams": 255000000, "duration": "3:48", "trend": -0.3, "lat": 34.17, "lng": -118.60 },
        { "id": "de_s1", "title": "Du Hast", "artist": "Rammstein", "album": "Sehnsucht", "streams": 230000000, "duration": "3:54", "trend": 8.6, "lat": 52.52, "lng": 13.40 },
        { "id": "s4", "title": "Anti-Hero", "artist": "Taylor Swift", "album": "Midnights", "streams": 205000000, "duration": "3:20", "trend": 12.8, "lat": 36.17, "lng": -86.78 },
        { "id": "s8", "title": "MALAMENTE", "artist": "Rosalía", "album": "Los Ángeles", "streams": 185000000, "duration": "3:28", "trend": 16.7, "lat": 41.38, "lng": 2.17 },
        { "id": "s7", "title": "Blinding Lights", "artist": "The Weeknd", "album": "After Hours", "streams": 165000000, "duration": "3:20", "trend": -0.8, "lat": 43.70, "lng": -79.41 },
        { "id": "de_s2", "title": "Pocahontas", "artist": "AnnenMayKantereit", "album": "Alles nix Konkretes", "streams": 145000000, "duration": "3:21", "trend": 11.4, "lat": 50.94, "lng": 6.96 },
        { "id": "s6", "title": "Paint The Town Red", "artist": "Doja Cat", "album": "Scarlet", "streams": 130000000, "duration": "3:55", "trend": 18.9, "lat": 34.20, "lng": -118.55 },
        { "id": "gb_s4", "title": "Yellow", "artist": "Coldplay", "album": "Parachutes", "streams": 115000000, "duration": "4:29", "trend": 7.2, "lat": 51.50, "lng": -0.12 },
        { "id": "de_s3", "title": "Autobahn", "artist": "Kraftwerk", "album": "Autobahn", "streams": 100000000, "duration": "22:43", "trend": 3.5, "lat": 51.23, "lng": 6.78 }
      ],
      "topAlbums": [
        { "id": "al1", "title": "Monsters of the Midnight", "artist": "The Midnight", "streams": 370000000, "trend": 15.6, "lat": 34.05, "lng": -118.24 },
        { "id": "al2", "title": "Hit Me Hard and Soft", "artist": "Billie Eilish", "streams": 330000000, "trend": -0.1, "lat": 34.17, "lng": -118.60 },
        { "id": "de_al1", "title": "Sehnsucht", "artist": "Rammstein", "streams": 300000000, "trend": 7.5, "lat": 52.52, "lng": 13.40 },
        { "id": "al4", "title": "Midnights", "artist": "Taylor Swift", "streams": 275000000, "trend": 11.9, "lat": 36.17, "lng": -86.78 },
        { "id": "al8", "title": "Los Ángeles", "artist": "Rosalía", "streams": 250000000, "trend": 14.8, "lat": 41.38, "lng": 2.17 },
        { "id": "al7", "title": "After Hours", "artist": "The Weeknd", "streams": 225000000, "trend": -0.6, "lat": 43.70, "lng": -79.41 },
        { "id": "de_al2", "title": "Alles nix Konkretes", "artist": "AnnenMayKantereit", "streams": 200000000, "trend": 9.8, "lat": 50.94, "lng": 6.96 },
        { "id": "al6", "title": "Scarlet", "artist": "Doja Cat", "streams": 175000000, "trend": 17.2, "lat": 34.20, "lng": -118.55 },
        { "id": "gb_al4", "title": "Music of the Spheres", "artist": "Coldplay", "streams": 155000000, "trend": 6.4, "lat": 51.50, "lng": -0.12 },
        { "id": "de_al3", "title": "Autobahn", "artist": "Kraftwerk", "streams": 135000000, "trend": 2.9, "lat": 51.23, "lng": 6.78 }
      ]
    },
    "NG": {
      "name": "Nigeria",
      "lat": 9.08,
      "lng": 8.68,
      "totalStreams": 2900000000,
      "trendPercent": 22.7,
      "topArtists": [
        { "id": "ng1", "name": "Burna Boy", "streams": 620000000, "trend": 28.4, "topSong": "Last Last", "lat": 6.46, "lng": 3.41 },
        { "id": "ng2", "name": "Wizkid", "streams": 580000000, "trend": 14.7, "topSong": "Essence", "lat": 6.43, "lng": 3.42 },
        { "id": "ng3", "name": "Davido", "streams": 520000000, "trend": 19.3, "topSong": "AWAY", "lat": 6.52, "lng": 3.38 },
        { "id": "ng4", "name": "Asake", "streams": 470000000, "trend": 36.8, "topSong": "Joha", "lat": 6.52, "lng": 3.36 },
        { "id": "ng5", "name": "Rema", "streams": 430000000, "trend": 31.2, "topSong": "Calm Down", "lat": 6.34, "lng": 5.63 },
        { "id": "a3", "name": "Bad Bunny", "streams": 350000000, "trend": 8.6, "topSong": "Tití Me Preguntó", "lat": 18.46, "lng": -66.11 },
        { "id": "a4", "name": "Taylor Swift", "streams": 290000000, "trend": 10.4, "topSong": "Anti-Hero", "lat": 36.17, "lng": -86.78 },
        { "id": "a6", "name": "Doja Cat", "streams": 260000000, "trend": 22.1, "topSong": "Paint The Town Red", "lat": 34.20, "lng": -118.55 },
        { "id": "a2", "name": "Billie Eilish", "streams": 220000000, "trend": -2.1, "topSong": "Ghost of You", "lat": 34.17, "lng": -118.60 },
        { "id": "a7", "name": "The Weeknd", "streams": 190000000, "trend": 1.4, "topSong": "Blinding Lights", "lat": 43.70, "lng": -79.41 }
      ],
      "topSongs": [
        { "id": "ng_s1", "title": "Last Last", "artist": "Burna Boy", "album": "Love, Damini", "streams": 340000000, "duration": "3:31", "trend": 30.1, "lat": 6.46, "lng": 3.41 },
        { "id": "ng_s2", "title": "Essence", "artist": "Wizkid", "album": "Made in Lagos", "streams": 310000000, "duration": "3:45", "trend": 15.8, "lat": 6.43, "lng": 3.42 },
        { "id": "ng_s3", "title": "Calm Down", "artist": "Rema", "album": "Rave & Roses", "streams": 280000000, "duration": "3:39", "trend": 33.4, "lat": 6.34, "lng": 5.63 },
        { "id": "ng_s4", "title": "Joha", "artist": "Asake", "album": "Work of Art", "streams": 250000000, "duration": "2:55", "trend": 38.7, "lat": 6.52, "lng": 3.36 },
        { "id": "ng_s5", "title": "AWAY", "artist": "Davido", "album": "Timeless", "streams": 220000000, "duration": "3:14", "trend": 21.5, "lat": 6.52, "lng": 3.38 },
        { "id": "s3", "title": "Tití Me Preguntó", "artist": "Bad Bunny", "album": "Un Verano Sin Ti", "streams": 180000000, "duration": "4:05", "trend": 9.7, "lat": 18.46, "lng": -66.11 },
        { "id": "s4", "title": "Anti-Hero", "artist": "Taylor Swift", "album": "Midnights", "streams": 150000000, "duration": "3:20", "trend": 11.2, "lat": 36.17, "lng": -86.78 },
        { "id": "s6", "title": "Paint The Town Red", "artist": "Doja Cat", "album": "Scarlet", "streams": 130000000, "duration": "3:55", "trend": 23.8, "lat": 34.20, "lng": -118.55 },
        { "id": "s2", "title": "Ghost of You", "artist": "Billie Eilish", "album": "Hit Me Hard and Soft", "streams": 110000000, "duration": "3:48", "trend": -1.4, "lat": 34.17, "lng": -118.60 },
        { "id": "s7", "title": "Blinding Lights", "artist": "The Weeknd", "album": "After Hours", "streams": 95000000, "duration": "3:20", "trend": 1.8, "lat": 43.70, "lng": -79.41 }
      ],
      "topAlbums": [
        { "id": "ng_al1", "title": "Love, Damini", "artist": "Burna Boy", "streams": 430000000, "trend": 27.6, "lat": 6.46, "lng": 3.41 },
        { "id": "ng_al2", "title": "Made in Lagos", "artist": "Wizkid", "streams": 400000000, "trend": 13.9, "lat": 6.43, "lng": 3.42 },
        { "id": "ng_al3", "title": "Rave & Roses", "artist": "Rema", "streams": 360000000, "trend": 31.8, "lat": 6.34, "lng": 5.63 },
        { "id": "ng_al4", "title": "Work of Art", "artist": "Asake", "streams": 330000000, "trend": 36.5, "lat": 6.52, "lng": 3.36 },
        { "id": "ng_al5", "title": "Timeless", "artist": "Davido", "streams": 300000000, "trend": 19.8, "lat": 6.52, "lng": 3.38 },
        { "id": "al3", "title": "Un Verano Sin Ti", "artist": "Bad Bunny", "streams": 235000000, "trend": 8.1, "lat": 18.46, "lng": -66.11 },
        { "id": "al4", "title": "Midnights", "artist": "Taylor Swift", "streams": 195000000, "trend": 10.1, "lat": 36.17, "lng": -86.78 },
        { "id": "al6", "title": "Scarlet", "artist": "Doja Cat", "streams": 170000000, "trend": 21.4, "lat": 34.20, "lng": -118.55 },
        { "id": "al2", "title": "Hit Me Hard and Soft", "artist": "Billie Eilish", "streams": 145000000, "trend": -0.8, "lat": 34.17, "lng": -118.60 },
        { "id": "al7", "title": "After Hours", "artist": "The Weeknd", "streams": 125000000, "trend": 1.5, "lat": 43.70, "lng": -79.41 }
      ]
    },
    "IN": {
      "name": "India",
      "lat": 20.59,
      "lng": 78.96,
      "totalStreams": 6200000000,
      "trendPercent": 18.3,
      "topArtists": [
        { "id": "in1", "name": "Arijit Singh", "streams": 1100000000, "trend": 14.6, "topSong": "Tum Hi Ho", "lat": 26.46, "lng": 74.64 },
        { "id": "in2", "name": "AR Rahman", "streams": 890000000, "trend": 9.2, "topSong": "Jai Ho", "lat": 13.08, "lng": 80.27 },
        { "id": "in3", "name": "Shreya Ghoshal", "streams": 760000000, "trend": 7.5, "topSong": "Dheere Jalna", "lat": 22.57, "lng": 88.36 },
        { "id": "in4", "name": "Badshah", "streams": 680000000, "trend": 22.4, "topSong": "Paagal", "lat": 28.70, "lng": 77.10 },
        { "id": "in5", "name": "Diljit Dosanjh", "streams": 620000000, "trend": 31.8, "topSong": "G.O.A.T.", "lat": 30.73, "lng": 76.78 },
        { "id": "a9", "name": "BTS", "streams": 520000000, "trend": -3.8, "topSong": "Dynamite", "lat": 37.57, "lng": 126.98 },
        { "id": "a4", "name": "Taylor Swift", "streams": 460000000, "trend": 16.2, "topSong": "Anti-Hero", "lat": 36.17, "lng": -86.78 },
        { "id": "a2", "name": "Billie Eilish", "streams": 400000000, "trend": 2.7, "topSong": "Ghost of You", "lat": 34.17, "lng": -118.60 },
        { "id": "in6", "name": "Honey Singh", "streams": 360000000, "trend": 5.4, "topSong": "Brown Rang", "lat": 30.73, "lng": 76.77 },
        { "id": "a6", "name": "Doja Cat", "streams": 310000000, "trend": 19.3, "topSong": "Paint The Town Red", "lat": 34.20, "lng": -118.55 }
      ],
      "topSongs": [
        { "id": "in_s1", "title": "Tum Hi Ho", "artist": "Arijit Singh", "album": "Aashiqui 2", "streams": 560000000, "duration": "4:22", "trend": 12.4, "lat": 26.46, "lng": 74.64 },
        { "id": "in_s2", "title": "G.O.A.T.", "artist": "Diljit Dosanjh", "album": "G.O.A.T.", "streams": 480000000, "duration": "3:28", "trend": 33.7, "lat": 30.73, "lng": 76.78 },
        { "id": "in_s3", "title": "Jai Ho", "artist": "AR Rahman", "album": "Slumdog Millionaire", "streams": 430000000, "duration": "5:26", "trend": 7.8, "lat": 13.08, "lng": 80.27 },
        { "id": "in_s4", "title": "Paagal", "artist": "Badshah", "album": "O.N.E.", "streams": 380000000, "duration": "3:15", "trend": 24.1, "lat": 28.70, "lng": 77.10 },
        { "id": "s9", "title": "Dynamite", "artist": "BTS", "album": "BE", "streams": 310000000, "duration": "3:19", "trend": -5.2, "lat": 37.57, "lng": 126.98 },
        { "id": "in_s5", "title": "Dheere Jalna", "artist": "Shreya Ghoshal", "album": "Bajirao Mastani", "streams": 270000000, "duration": "4:41", "trend": 6.3, "lat": 22.57, "lng": 88.36 },
        { "id": "s4", "title": "Anti-Hero", "artist": "Taylor Swift", "album": "Midnights", "streams": 235000000, "duration": "3:20", "trend": 15.8, "lat": 36.17, "lng": -86.78 },
        { "id": "s2", "title": "Ghost of You", "artist": "Billie Eilish", "album": "Hit Me Hard and Soft", "streams": 205000000, "duration": "3:48", "trend": 3.1, "lat": 34.17, "lng": -118.60 },
        { "id": "in_s6", "title": "Brown Rang", "artist": "Honey Singh", "album": "International Villager", "streams": 180000000, "duration": "3:38", "trend": 4.7, "lat": 30.73, "lng": 76.77 },
        { "id": "s6", "title": "Paint The Town Red", "artist": "Doja Cat", "album": "Scarlet", "streams": 155000000, "duration": "3:55", "trend": 20.6, "lat": 34.20, "lng": -118.55 }
      ],
      "topAlbums": [
        { "id": "in_al1", "title": "Aashiqui 2", "artist": "Arijit Singh", "streams": 720000000, "trend": 11.3, "lat": 26.46, "lng": 74.64 },
        { "id": "in_al2", "title": "G.O.A.T.", "artist": "Diljit Dosanjh", "streams": 620000000, "trend": 30.4, "lat": 30.73, "lng": 76.78 },
        { "id": "in_al3", "title": "Slumdog Millionaire", "artist": "AR Rahman", "streams": 560000000, "trend": 6.5, "lat": 13.08, "lng": 80.27 },
        { "id": "in_al4", "title": "O.N.E.", "artist": "Badshah", "streams": 490000000, "trend": 21.7, "lat": 28.70, "lng": 77.10 },
        { "id": "al9", "title": "BE", "artist": "BTS", "streams": 410000000, "trend": -4.1, "lat": 37.57, "lng": 126.98 },
        { "id": "in_al5", "title": "Bajirao Mastani", "artist": "Shreya Ghoshal", "streams": 360000000, "trend": 5.8, "lat": 22.57, "lng": 88.36 },
        { "id": "al4", "title": "Midnights", "artist": "Taylor Swift", "streams": 310000000, "trend": 14.3, "lat": 36.17, "lng": -86.78 },
        { "id": "al2", "title": "Hit Me Hard and Soft", "artist": "Billie Eilish", "streams": 270000000, "trend": 2.8, "lat": 34.17, "lng": -118.60 },
        { "id": "in_al6", "title": "International Villager", "artist": "Honey Singh", "streams": 235000000, "trend": 4.2, "lat": 30.73, "lng": 76.77 },
        { "id": "al6", "title": "Scarlet", "artist": "Doja Cat", "streams": 205000000, "trend": 18.5, "lat": 34.20, "lng": -118.55 }
      ]
    },
    "MX": {
      "name": "Mexico",
      "lat": 23.63,
      "lng": -102.55,
      "totalStreams": 3100000000,
      "trendPercent": 15.2,
      "topArtists": [
        { "id": "a3", "name": "Bad Bunny", "streams": 680000000, "trend": 13.8, "topSong": "Tití Me Preguntó", "lat": 18.46, "lng": -66.11 },
        { "id": "mx1", "name": "Peso Pluma", "streams": 620000000, "trend": 41.7, "topSong": "LADY GAGA", "lat": 20.67, "lng": -103.35 },
        { "id": "mx2", "name": "Natanael Cano", "streams": 540000000, "trend": 28.4, "topSong": "Pacas de 100", "lat": 20.67, "lng": -103.34 },
        { "id": "a4", "name": "Taylor Swift", "streams": 460000000, "trend": 16.8, "topSong": "Anti-Hero", "lat": 36.17, "lng": -86.78 },
        { "id": "br1", "name": "Anitta", "streams": 390000000, "trend": 21.4, "topSong": "Envolver", "lat": -22.91, "lng": -43.17 },
        { "id": "a6", "name": "Doja Cat", "streams": 340000000, "trend": 19.7, "topSong": "Paint The Town Red", "lat": 34.20, "lng": -118.55 },
        { "id": "a2", "name": "Billie Eilish", "streams": 310000000, "trend": -0.5, "topSong": "Ghost of You", "lat": 34.17, "lng": -118.60 },
        { "id": "mx3", "name": "Los Bukis", "streams": 270000000, "trend": 5.2, "topSong": "Me Volví a Acordar de Ti", "lat": 20.97, "lng": -89.62 },
        { "id": "a7", "name": "The Weeknd", "streams": 240000000, "trend": -1.2, "topSong": "Blinding Lights", "lat": 43.70, "lng": -79.41 },
        { "id": "a5", "name": "Drake", "streams": 210000000, "trend": -3.8, "topSong": "Rich Flex", "lat": 43.65, "lng": -79.38 }
      ],
      "topSongs": [
        { "id": "s3", "title": "Tití Me Preguntó", "artist": "Bad Bunny", "album": "Un Verano Sin Ti", "streams": 360000000, "duration": "4:05", "trend": 14.9, "lat": 18.46, "lng": -66.11 },
        { "id": "mx_s1", "title": "LADY GAGA", "artist": "Peso Pluma", "album": "GÉNESIS", "streams": 330000000, "duration": "2:48", "trend": 44.2, "lat": 20.67, "lng": -103.35 },
        { "id": "mx_s2", "title": "Pacas de 100", "artist": "Natanael Cano", "album": "Trap Tumbado", "streams": 290000000, "duration": "3:02", "trend": 30.1, "lat": 20.67, "lng": -103.34 },
        { "id": "s4", "title": "Anti-Hero", "artist": "Taylor Swift", "album": "Midnights", "streams": 250000000, "duration": "3:20", "trend": 15.6, "lat": 36.17, "lng": -86.78 },
        { "id": "br_s1", "title": "Envolver", "artist": "Anitta", "album": "Versions of Me", "streams": 210000000, "duration": "2:50", "trend": 22.7, "lat": -22.91, "lng": -43.17 },
        { "id": "s6", "title": "Paint The Town Red", "artist": "Doja Cat", "album": "Scarlet", "streams": 185000000, "duration": "3:55", "trend": 21.3, "lat": 34.20, "lng": -118.55 },
        { "id": "s2", "title": "Ghost of You", "artist": "Billie Eilish", "album": "Hit Me Hard and Soft", "streams": 160000000, "duration": "3:48", "trend": -0.2, "lat": 34.17, "lng": -118.60 },
        { "id": "mx_s3", "title": "Me Volví a Acordar de Ti", "artist": "Los Bukis", "album": "Tu Cárcel", "streams": 140000000, "duration": "3:58", "trend": 4.6, "lat": 20.97, "lng": -89.62 },
        { "id": "s7", "title": "Blinding Lights", "artist": "The Weeknd", "album": "After Hours", "streams": 120000000, "duration": "3:20", "trend": -0.7, "lat": 43.70, "lng": -79.41 },
        { "id": "s5", "title": "Rich Flex", "artist": "Drake", "album": "Her Loss", "streams": 100000000, "duration": "3:43", "trend": -4.1, "lat": 43.65, "lng": -79.38 }
      ],
      "topAlbums": [
        { "id": "al3", "title": "Un Verano Sin Ti", "artist": "Bad Bunny", "streams": 460000000, "trend": 12.4, "lat": 18.46, "lng": -66.11 },
        { "id": "mx_al1", "title": "GÉNESIS", "artist": "Peso Pluma", "streams": 430000000, "trend": 42.5, "lat": 20.67, "lng": -103.35 },
        { "id": "mx_al2", "title": "Trap Tumbado", "artist": "Natanael Cano", "streams": 380000000, "trend": 27.8, "lat": 20.67, "lng": -103.34 },
        { "id": "al4", "title": "Midnights", "artist": "Taylor Swift", "streams": 320000000, "trend": 14.7, "lat": 36.17, "lng": -86.78 },
        { "id": "br_al1", "title": "Versions of Me", "artist": "Anitta", "streams": 275000000, "trend": 20.1, "lat": -22.91, "lng": -43.17 },
        { "id": "al6", "title": "Scarlet", "artist": "Doja Cat", "streams": 240000000, "trend": 19.6, "lat": 34.20, "lng": -118.55 },
        { "id": "al2", "title": "Hit Me Hard and Soft", "artist": "Billie Eilish", "streams": 210000000, "trend": -0.1, "lat": 34.17, "lng": -118.60 },
        { "id": "mx_al3", "title": "Tu Cárcel", "artist": "Los Bukis", "streams": 185000000, "trend": 3.8, "lat": 20.97, "lng": -89.62 },
        { "id": "al7", "title": "After Hours", "artist": "The Weeknd", "streams": 160000000, "trend": -0.4, "lat": 43.70, "lng": -79.41 },
        { "id": "al5", "title": "Her Loss", "artist": "Drake", "streams": 140000000, "trend": -3.5, "lat": 43.65, "lng": -79.38 }
      ]
    },
    "AU": {
      "name": "Australia",
      "lat": -25.27,
      "lng": 133.77,
      "totalStreams": 2400000000,
      "trendPercent": 8.1,
      "topArtists": [
        { "id": "a1", "name": "The Midnight", "streams": 480000000, "trend": 18.4, "topSong": "Synthwave Sunrise", "lat": 34.05, "lng": -118.24 },
        { "id": "a4", "name": "Taylor Swift", "streams": 440000000, "trend": 14.9, "topSong": "Anti-Hero", "lat": 36.17, "lng": -86.78 },
        { "id": "au1", "name": "Tame Impala", "streams": 400000000, "trend": 11.2, "topSong": "The Less I Know The Better", "lat": -31.95, "lng": 115.86 },
        { "id": "a2", "name": "Billie Eilish", "streams": 360000000, "trend": 2.8, "topSong": "Ghost of You", "lat": 34.17, "lng": -118.60 },
        { "id": "au2", "name": "Flume", "streams": 320000000, "trend": 9.6, "topSong": "Never Be Like You", "lat": -33.87, "lng": 151.21 },
        { "id": "a7", "name": "The Weeknd", "streams": 290000000, "trend": -0.8, "topSong": "Blinding Lights", "lat": 43.70, "lng": -79.41 },
        { "id": "gb1", "name": "Coldplay", "streams": 260000000, "trend": 7.4, "topSong": "Yellow", "lat": 51.50, "lng": -0.12 },
        { "id": "a6", "name": "Doja Cat", "streams": 230000000, "trend": 16.8, "topSong": "Paint The Town Red", "lat": 34.20, "lng": -118.55 },
        { "id": "a8", "name": "Rosalía", "streams": 200000000, "trend": 14.7, "topSong": "MALAMENTE", "lat": 41.38, "lng": 2.17 },
        { "id": "a5", "name": "Drake", "streams": 175000000, "trend": -4.1, "topSong": "Rich Flex", "lat": 43.65, "lng": -79.38 }
      ],
      "topSongs": [
        { "id": "s1", "title": "Synthwave Sunrise", "artist": "The Midnight", "album": "Monsters of the Midnight", "streams": 240000000, "duration": "4:02", "trend": 19.1, "lat": 34.05, "lng": -118.24 },
        { "id": "s4", "title": "Anti-Hero", "artist": "Taylor Swift", "album": "Midnights", "streams": 220000000, "duration": "3:20", "trend": 13.8, "lat": 36.17, "lng": -86.78 },
        { "id": "au_s1", "title": "The Less I Know The Better", "artist": "Tame Impala", "album": "Currents", "streams": 200000000, "duration": "3:38", "trend": 12.5, "lat": -31.95, "lng": 115.86 },
        { "id": "s2", "title": "Ghost of You", "artist": "Billie Eilish", "album": "Hit Me Hard and Soft", "streams": 185000000, "duration": "3:48", "trend": 3.2, "lat": 34.17, "lng": -118.60 },
        { "id": "au_s2", "title": "Never Be Like You", "artist": "Flume", "album": "Skin", "streams": 165000000, "duration": "3:44", "trend": 10.3, "lat": -33.87, "lng": 151.21 },
        { "id": "s7", "title": "Blinding Lights", "artist": "The Weeknd", "album": "After Hours", "streams": 145000000, "duration": "3:20", "trend": -0.5, "lat": 43.70, "lng": -79.41 },
        { "id": "gb_s4", "title": "Yellow", "artist": "Coldplay", "album": "Parachutes", "streams": 130000000, "duration": "4:29", "trend": 6.8, "lat": 51.50, "lng": -0.12 },
        { "id": "s6", "title": "Paint The Town Red", "artist": "Doja Cat", "album": "Scarlet", "streams": 115000000, "duration": "3:55", "trend": 17.4, "lat": 34.20, "lng": -118.55 },
        { "id": "s8", "title": "MALAMENTE", "artist": "Rosalía", "album": "Los Ángeles", "streams": 100000000, "duration": "3:28", "trend": 15.1, "lat": 41.38, "lng": 2.17 },
        { "id": "s5", "title": "Rich Flex", "artist": "Drake", "album": "Her Loss", "streams": 88000000, "duration": "3:43", "trend": -3.7, "lat": 43.65, "lng": -79.38 }
      ],
      "topAlbums": [
        { "id": "al1", "title": "Monsters of the Midnight", "artist": "The Midnight", "streams": 310000000, "trend": 17.2, "lat": 34.05, "lng": -118.24 },
        { "id": "al4", "title": "Midnights", "artist": "Taylor Swift", "streams": 280000000, "trend": 12.9, "lat": 36.17, "lng": -86.78 },
        { "id": "au_al1", "title": "Currents", "artist": "Tame Impala", "streams": 255000000, "trend": 10.8, "lat": -31.95, "lng": 115.86 },
        { "id": "al2", "title": "Hit Me Hard and Soft", "artist": "Billie Eilish", "streams": 235000000, "trend": 2.6, "lat": 34.17, "lng": -118.60 },
        { "id": "au_al2", "title": "Skin", "artist": "Flume", "streams": 210000000, "trend": 9.1, "lat": -33.87, "lng": 151.21 },
        { "id": "al7", "title": "After Hours", "artist": "The Weeknd", "streams": 190000000, "trend": -0.3, "lat": 43.70, "lng": -79.41 },
        { "id": "gb_al4", "title": "Music of the Spheres", "artist": "Coldplay", "streams": 170000000, "trend": 6.2, "lat": 51.50, "lng": -0.12 },
        { "id": "al6", "title": "Scarlet", "artist": "Doja Cat", "streams": 150000000, "trend": 15.9, "lat": 34.20, "lng": -118.55 },
        { "id": "al8", "title": "Los Ángeles", "artist": "Rosalía", "streams": 130000000, "trend": 13.4, "lat": 41.38, "lng": 2.17 },
        { "id": "al5", "title": "Her Loss", "artist": "Drake", "streams": 115000000, "trend": -3.2, "lat": 43.65, "lng": -79.38 }
      ]
    },
    "SE": {
      "name": "Sweden",
      "lat": 60.13,
      "lng": 18.64,
      "totalStreams": 1800000000,
      "trendPercent": 10.7,
      "topArtists": [
        { "id": "a1", "name": "The Midnight", "streams": 390000000, "trend": 20.1, "topSong": "Synthwave Sunrise", "lat": 34.05, "lng": -118.24 },
        { "id": "se1", "name": "Robyn", "streams": 340000000, "trend": 8.7, "topSong": "Dancing On My Own", "lat": 59.33, "lng": 18.07 },
        { "id": "a2", "name": "Billie Eilish", "streams": 300000000, "trend": 1.6, "topSong": "Ghost of You", "lat": 34.17, "lng": -118.60 },
        { "id": "se2", "name": "Avicii", "streams": 270000000, "trend": 5.3, "topSong": "Wake Me Up", "lat": 59.33, "lng": 18.07 },
        { "id": "a4", "name": "Taylor Swift", "streams": 240000000, "trend": 14.2, "topSong": "Anti-Hero", "lat": 36.17, "lng": -86.78 },
        { "id": "a8", "name": "Rosalía", "streams": 210000000, "trend": 17.4, "topSong": "MALAMENTE", "lat": 41.38, "lng": 2.17 },
        { "id": "se3", "name": "Tove Lo", "streams": 185000000, "trend": 12.8, "topSong": "Habits (Stay High)", "lat": 59.33, "lng": 18.05 },
        { "id": "a7", "name": "The Weeknd", "streams": 165000000, "trend": -1.0, "topSong": "Blinding Lights", "lat": 43.70, "lng": -79.41 },
        { "id": "gb2", "name": "Dua Lipa", "streams": 145000000, "trend": 11.3, "topSong": "Levitating", "lat": 51.55, "lng": -0.08 },
        { "id": "a6", "name": "Doja Cat", "streams": 125000000, "trend": 18.6, "topSong": "Paint The Town Red", "lat": 34.20, "lng": -118.55 }
      ],
      "topSongs": [
        { "id": "s1", "title": "Synthwave Sunrise", "artist": "The Midnight", "album": "Monsters of the Midnight", "streams": 195000000, "duration": "4:02", "trend": 21.3, "lat": 34.05, "lng": -118.24 },
        { "id": "se_s1", "title": "Dancing On My Own", "artist": "Robyn", "album": "Body Talk", "streams": 175000000, "duration": "4:12", "trend": 9.4, "lat": 59.33, "lng": 18.07 },
        { "id": "s2", "title": "Ghost of You", "artist": "Billie Eilish", "album": "Hit Me Hard and Soft", "streams": 155000000, "duration": "3:48", "trend": 2.1, "lat": 34.17, "lng": -118.60 },
        { "id": "se_s2", "title": "Wake Me Up", "artist": "Avicii", "album": "True", "streams": 138000000, "duration": "4:08", "trend": 6.7, "lat": 59.33, "lng": 18.07 },
        { "id": "s4", "title": "Anti-Hero", "artist": "Taylor Swift", "album": "Midnights", "streams": 120000000, "duration": "3:20", "trend": 13.1, "lat": 36.17, "lng": -86.78 },
        { "id": "s8", "title": "MALAMENTE", "artist": "Rosalía", "album": "Los Ángeles", "streams": 105000000, "duration": "3:28", "trend": 18.2, "lat": 41.38, "lng": 2.17 },
        { "id": "se_s3", "title": "Habits (Stay High)", "artist": "Tove Lo", "album": "Queen of the Clouds", "streams": 93000000, "duration": "3:45", "trend": 13.5, "lat": 59.33, "lng": 18.05 },
        { "id": "s7", "title": "Blinding Lights", "artist": "The Weeknd", "album": "After Hours", "streams": 82000000, "duration": "3:20", "trend": -0.6, "lat": 43.70, "lng": -79.41 },
        { "id": "gb_s1", "title": "Levitating", "artist": "Dua Lipa", "album": "Future Nostalgia", "streams": 72000000, "duration": "3:23", "trend": 12.7, "lat": 51.55, "lng": -0.08 },
        { "id": "s6", "title": "Paint The Town Red", "artist": "Doja Cat", "album": "Scarlet", "streams": 63000000, "duration": "3:55", "trend": 19.4, "lat": 34.20, "lng": -118.55 }
      ],
      "topAlbums": [
        { "id": "al1", "title": "Monsters of the Midnight", "artist": "The Midnight", "streams": 250000000, "trend": 18.6, "lat": 34.05, "lng": -118.24 },
        { "id": "se_al1", "title": "Body Talk", "artist": "Robyn", "streams": 225000000, "trend": 7.9, "lat": 59.33, "lng": 18.07 },
        { "id": "al2", "title": "Hit Me Hard and Soft", "artist": "Billie Eilish", "streams": 198000000, "trend": 1.8, "lat": 34.17, "lng": -118.60 },
        { "id": "se_al2", "title": "True", "artist": "Avicii", "streams": 178000000, "trend": 5.4, "lat": 59.33, "lng": 18.07 },
        { "id": "al4", "title": "Midnights", "artist": "Taylor Swift", "streams": 155000000, "trend": 12.4, "lat": 36.17, "lng": -86.78 },
        { "id": "al8", "title": "Los Ángeles", "artist": "Rosalía", "streams": 135000000, "trend": 16.8, "lat": 41.38, "lng": 2.17 },
        { "id": "se_al3", "title": "Queen of the Clouds", "artist": "Tove Lo", "streams": 118000000, "trend": 11.7, "lat": 59.33, "lng": 18.05 },
        { "id": "al7", "title": "After Hours", "artist": "The Weeknd", "streams": 103000000, "trend": -0.4, "lat": 43.70, "lng": -79.41 },
        { "id": "gb_al1", "title": "Future Nostalgia", "artist": "Dua Lipa", "streams": 90000000, "trend": 10.8, "lat": 51.55, "lng": -0.08 },
        { "id": "al6", "title": "Scarlet", "artist": "Doja Cat", "streams": 80000000, "trend": 17.5, "lat": 34.20, "lng": -118.55 }
      ]
    },
    "FR": {
      "name": "France",
      "lat": 46.23,
      "lng": 2.21,
      "totalStreams": 3300000000,
      "trendPercent": 7.9,
      "topArtists": [
        { "id": "fr1", "name": "Aya Nakamura", "streams": 580000000, "trend": 16.3, "topSong": "Djadja", "lat": 48.85, "lng": 2.35 },
        { "id": "a8", "name": "Rosalía", "streams": 520000000, "trend": 21.4, "topSong": "MALAMENTE", "lat": 41.38, "lng": 2.17 },
        { "id": "a1", "name": "The Midnight", "streams": 470000000, "trend": 13.7, "topSong": "Synthwave Sunrise", "lat": 34.05, "lng": -118.24 },
        { "id": "a2", "name": "Billie Eilish", "streams": 430000000, "trend": 0.9, "topSong": "Ghost of You", "lat": 34.17, "lng": -118.60 },
        { "id": "fr2", "name": "PNL", "streams": 390000000, "trend": 9.8, "topSong": "Au DD", "lat": 48.86, "lng": 2.35 },
        { "id": "a4", "name": "Taylor Swift", "streams": 350000000, "trend": 12.4, "topSong": "Anti-Hero", "lat": 36.17, "lng": -86.78 },
        { "id": "gb2", "name": "Dua Lipa", "streams": 310000000, "trend": 10.1, "topSong": "Levitating", "lat": 51.55, "lng": -0.08 },
        { "id": "fr3", "name": "Angèle", "streams": 275000000, "trend": 14.6, "topSong": "La Thune", "lat": 50.84, "lng": 4.35 },
        { "id": "a3", "name": "Bad Bunny", "streams": 240000000, "trend": 7.2, "topSong": "Tití Me Preguntó", "lat": 18.46, "lng": -66.11 },
        { "id": "a7", "name": "The Weeknd", "streams": 215000000, "trend": -0.7, "topSong": "Blinding Lights", "lat": 43.70, "lng": -79.41 }
      ],
      "topSongs": [
        { "id": "fr_s1", "title": "Djadja", "artist": "Aya Nakamura", "album": "Nakamura", "streams": 290000000, "duration": "3:04", "trend": 17.8, "lat": 48.85, "lng": 2.35 },
        { "id": "s8", "title": "MALAMENTE", "artist": "Rosalía", "album": "Los Ángeles", "streams": 260000000, "duration": "3:28", "trend": 22.5, "lat": 41.38, "lng": 2.17 },
        { "id": "s1", "title": "Synthwave Sunrise", "artist": "The Midnight", "album": "Monsters of the Midnight", "streams": 235000000, "duration": "4:02", "trend": 14.8, "lat": 34.05, "lng": -118.24 },
        { "id": "s2", "title": "Ghost of You", "artist": "Billie Eilish", "album": "Hit Me Hard and Soft", "streams": 215000000, "duration": "3:48", "trend": 1.4, "lat": 34.17, "lng": -118.60 },
        { "id": "fr_s2", "title": "Au DD", "artist": "PNL", "album": "Deux frères", "streams": 195000000, "duration": "3:40", "trend": 10.6, "lat": 48.86, "lng": 2.35 },
        { "id": "s4", "title": "Anti-Hero", "artist": "Taylor Swift", "album": "Midnights", "streams": 178000000, "duration": "3:20", "trend": 11.9, "lat": 36.17, "lng": -86.78 },
        { "id": "gb_s1", "title": "Levitating", "artist": "Dua Lipa", "album": "Future Nostalgia", "streams": 160000000, "duration": "3:23", "trend": 10.4, "lat": 51.55, "lng": -0.08 },
        { "id": "fr_s3", "title": "La Thune", "artist": "Angèle", "album": "Brol", "streams": 140000000, "duration": "2:51", "trend": 15.2, "lat": 50.84, "lng": 4.35 },
        { "id": "s3", "title": "Tití Me Preguntó", "artist": "Bad Bunny", "album": "Un Verano Sin Ti", "streams": 122000000, "duration": "4:05", "trend": 7.8, "lat": 18.46, "lng": -66.11 },
        { "id": "s7", "title": "Blinding Lights", "artist": "The Weeknd", "album": "After Hours", "streams": 108000000, "duration": "3:20", "trend": -0.3, "lat": 43.70, "lng": -79.41 }
      ],
      "topAlbums": [
        { "id": "fr_al1", "title": "Nakamura", "artist": "Aya Nakamura", "streams": 375000000, "trend": 15.4, "lat": 48.85, "lng": 2.35 },
        { "id": "al8", "title": "Los Ángeles", "artist": "Rosalía", "streams": 340000000, "trend": 20.1, "lat": 41.38, "lng": 2.17 },
        { "id": "al1", "title": "Monsters of the Midnight", "artist": "The Midnight", "streams": 310000000, "trend": 12.6, "lat": 34.05, "lng": -118.24 },
        { "id": "al2", "title": "Hit Me Hard and Soft", "artist": "Billie Eilish", "streams": 280000000, "trend": 1.1, "lat": 34.17, "lng": -118.60 },
        { "id": "fr_al2", "title": "Deux frères", "artist": "PNL", "streams": 255000000, "trend": 8.7, "lat": 48.86, "lng": 2.35 },
        { "id": "al4", "title": "Midnights", "artist": "Taylor Swift", "streams": 230000000, "trend": 10.8, "lat": 36.17, "lng": -86.78 },
        { "id": "gb_al1", "title": "Future Nostalgia", "artist": "Dua Lipa", "streams": 208000000, "trend": 9.2, "lat": 51.55, "lng": -0.08 },
        { "id": "fr_al3", "title": "Brol", "artist": "Angèle", "streams": 185000000, "trend": 13.1, "lat": 50.84, "lng": 4.35 },
        { "id": "al3", "title": "Un Verano Sin Ti", "artist": "Bad Bunny", "streams": 162000000, "trend": 6.5, "lat": 18.46, "lng": -66.11 },
        { "id": "al7", "title": "After Hours", "artist": "The Weeknd", "streams": 142000000, "trend": -0.1, "lat": 43.70, "lng": -79.41 }
      ]
    }
  }
}
